stop_id,stop_name,main_cross_street,stop_lat,stop_lon,district_hits,in_geofence,saturday_alightings_monthly,sunday_alightings_monthly,weekday_alightings_monthly,saturday_boardings_monthly,sunday_boardings_monthly,weekday_boardings_monthly,saturday_trips_observed_monthly,sunday_trips_observed_monthly,weekday_trips_observed_monthly,weekday_boardings,weekday_alightings,saturday_boardings,saturday_alightings,sunday_boardings,sunday_alightings,annual_boardings,annual_alightings
5396,Winchester Station (Bay 2),WINCHESTER STATION,37.279378,-121.948538,,False,269,251,2348,270,251,2436,38,26,62,105.91,102.09,67.5,67.25,62.75,62.75,33780,32793
1141,Blossom Hill & Snell,BLOSSOM HILL + SNELL,37.251461,-121.829865,,False,29,29,284,82,81,1039,19,13,32,45.17,12.35,20.5,7.25,20.25,7.25,13637,3903
3304,Santa Teresa Station,SANTA TERESA LIGHT RAIL STATION,37.236285,-121.789479,,False,107,93,877,82,90,805,38,26,63,35.0,38.13,20.5,26.75,22.5,23.25,11161,12323
1135,Poughkeepsie & Cottle,POUGHKEEPSIE + COTTLE,37.251595,-121.80523,,False,5,5,30,84,51,681,19,13,32,29.61,1.3,21.0,1.25,12.75,1.25,9306,462
1106,Blossom Hill & Hillview,BLOSSOM HILL + HILLVIEW,37.250256,-121.862691,,False,25,25,200,45,60,604,19,13,31,26.26,8.7,11.25,6.25,15.0,6.25,8061,2868
1143,Blossom Hill Station,BLOSSOM HILL STATION,37.252223,-121.841152,,False,31,22,367,54,34,596,19,13,32,25.91,15.96,13.5,7.75,8.5,5.5,7751,4759
1102,Blossom Hill & Plaza,BLOSSOM HILL + PLAZA,37.250513,-121.876818,,False,39,34,332,62,66,575,19,13,31,25.0,14.43,15.5,9.75,16.5,8.5,8039,4629
1138,Blossom Hill & Lean,BLOSSOM HILL + LEAN,37.251617,-121.816974,,False,3,2,89,55,47,565,19,13,32,24.57,3.87,13.75,0.75,11.75,0.5,7591,1052
1745,Good Samaritan Hospital,SAMARITAN + GOOD SAMARITAN HOSP,37.251009,-121.947555,D6,True,24,14,208,26,21,403,19,13,31,17.52,9.04,6.5,6.0,5.25,3.5,5079,2799
1107,Blossom Hill & Santa Teresa,BLOSSOM HILL + SANTA TERESA,37.250202,-121.858057,,False,12,26,242,38,38,333,19,13,31,14.48,10.52,9.5,3.0,9.5,6.5,4680,3177
1153,Blossom Hill & Almaden Plaza,BLOSSOM HILL + ALMADEN (ALMADEN PLAZA),37.250826,-121.877094,,False,56,46,572,45,27,323,19,13,32,14.04,24.87,11.25,14.0,6.75,11.5,4516,7668
1101,Blossom Hill & Ayrshire,BLOSSOM HILL + AYRSHIRE,37.248068,-121.882769,,False,14,6,52,10,9,298,19,13,31,12.96,2.26,2.5,3.5,2.25,1.5,3552,836
1110,Blossom Hill Station,BLOSSOM HILL STATION,37.252393,-121.841442,,False,59,45,562,28,15,294,19,13,31,12.78,24.43,7.0,14.75,3.75,11.25,3818,7582
1093,Blossom Hill & Camden,BLOSSOM HILL + CAMDEN,37.236319,-121.90276,,False,7,8,116,25,20,277,19,13,31,12.04,5.04,6.25,1.75,5.0,2.0,3655,1480
2791,Santa Cruz & Main,SANTA CRUZ + MAIN,37.222231,-121.983921,D1,True,0,0,211,0,0,276,0,0,32,12.0,9.17,0.0,0.0,0.0,0.0,3060,2338
1097,Blossom Hill & Meridian,BLOSSOM HILL + MERIDIAN,37.243466,-121.889251,,False,20,12,209,25,13,266,19,13,31,11.57,9.09,6.25,5.0,3.25,3.0,3444,2734
1821,Good Samaritan Hospital,GOOD SAMARITAN HOSPITAL,37.25123,-121.947782,D6,True,37,26,454,36,18,263,19,14,32,11.43,19.74,9.0,9.25,4.5,6.5,3617,5853
1156,Blossom Hill & Meridian,BLOSSOM HILL + MERIDIAN,37.243639,-121.889382,,False,30,13,271,26,32,250,19,13,32,10.87,11.78,6.5,7.5,8.0,3.25,3526,3563
1112,Blossom Hill & Snell,BLOSSOM HILL + SNELL,37.251147,-121.829768,,False,57,67,531,19,19,242,19,13,31,10.52,23.09,4.75,14.25,4.75,16.75,3177,7500
1100,Blossom Hill & Seifert,BLOSSOM HILL + SEIFERT,37.245909,-121.886549,,False,10,5,85,34,22,236,19,13,31,10.26,3.7,8.5,2.5,5.5,1.25,3344,1138
1148,Blossom Hill & Santa Teresa,BLOSSOM HILL + SANTA TERESA (FS),37.250521,-121.86032,,False,74,86,709,22,24,231,19,13,32,10.04,30.83,5.5,18.5,6.0,21.5,3158,9942
3306,Santa Teresa & Del Canto,SANTA TERESA + DEL CANTO,37.237132,-121.79949,,False,2,1,15,33,18,229,19,13,32,9.96,0.65,8.25,0.5,4.5,0.25,3203,205
1149,Blossom Hill & Oakridge Mall,BLOSSOM HILL + OAKRIDGE MALL,37.250544,-121.863345,,False,41,34,193,38,48,221,19,13,32,9.61,8.39,9.5,10.25,12.0,8.5,3569,3114
1150,Blossom Hill & Winfield,BLOSSOM HILL + WINFIELD,37.25055,-121.867,,False,8,11,120,18,8,211,19,13,32,9.17,5.22,4.5,2.0,2.0,2.75,2676,1578
1131,Cottle & Raleigh,COTTLE + RALEIGH,37.245181,-121.803751,,False,5,5,28,12,20,205,19,13,32,8.91,1.22,3.0,1.25,5.0,1.25,2688,441
1066,Santa Cruz & Los Gatos-Saratoga,SANTA CRUZ + LOS GATOS-SARATOGA,37.230435,-121.980139,D1,True,17,9,103,47,32,203,19,13,32,8.83,4.48,11.75,4.25,8.0,2.25,3279,1480
1169,Los Gatos-Almaden & Leigh,LOS GATOS-ALMADEN + LEIGH,37.243565,-121.923031,,False,5,5,47,3,7,203,19,14,32,8.83,2.04,0.75,1.25,1.75,1.25,2382,650
1147,Blossom Hill & Playa Del Rey,BLOSSOM HILL + PLAYA DEL REY,37.250446,-121.853186,,False,12,20,181,20,12,197,19,13,32,8.57,7.87,5.0,3.0,3.0,5.0,2601,2423
1140,Blossom Hill & Judith,BLOSSOM HILL + JUDITH,37.251536,-121.825394,,False,6,1,70,25,33,174,19,13,32,7.57,3.04,6.25,1.5,8.25,0.25,2684,866
1084,Los Gatos-Almaden & Union,LOS GATOS-ALMADEN + UNION,37.243344,-121.930625,,False,8,9,86,14,22,173,19,13,31,7.52,3.74,3.5,2.0,5.5,2.25,2386,1175
2774,Burrows & Hacienda,BURROWS + HACIENDA,37.26881,-121.972367,,False,6,11,131,7,5,168,19,13,30,7.3,5.7,1.75,1.5,1.25,2.75,2018,1674
2696,Main & Jackson,MAIN + JACKSON,37.220976,-121.974169,D7,True,0,0,76,0,0,146,0,0,30,6.35,3.3,0.0,0.0,0.0,0.0,1619,842
1142,Blossom Hill & Entrada Cedros,BLOSSOM HILL + ENTRADA CEDROS,37.251413,-121.833276,,False,2,3,21,29,18,145,19,13,21,6.3,0.91,7.25,0.5,4.5,0.75,2218,297
1074,Los Gatos & Leroy,LOS GATOS + BLOSSOM HILL,37.236889,-121.962267,D7,True,11,10,151,9,11,144,19,13,30,6.26,6.57,2.25,2.75,2.75,2.5,1856,1948
1108,Blossom Hill & Playa Del Rey,BLOSSOM HILL + PLAYA DEL REY,37.250186,-121.852512,,False,7,12,144,29,19,140,19,13,31,6.09,6.26,7.25,1.75,4.75,3.0,2177,1843
1833,Burrows & Hacienda,BURROWS + HACIENDA,37.268802,-121.972263,,False,7,6,101,9,13,135,19,13,32,5.87,4.39,2.25,1.75,3.25,1.5,1783,1288
1181,Los Gatos & Blossom Hill,LOS GATOS + BLOSSOM HILL,37.236862,-121.962681,D7,True,12,13,135,12,12,133,19,13,32,5.78,5.87,3.0,3.0,3.0,3.25,1786,1822
2788,Main & Pleasant,MAIN + PLEASANT,37.221126,-121.974711,D7,True,0,0,86,0,0,133,0,0,32,5.78,3.74,0.0,0.0,0.0,0.0,1474,954
2695,Main & Los Gatos Civic Center,LOS GATOS CIVIC CENTER,37.221205,-121.979109,D7,True,0,0,248,0,0,132,0,0,30,5.74,10.78,0.0,0.0,0.0,0.0,1464,2749
2783,Winchester & Vineland,WINCHESTER + VINELAND,37.243587,-121.975538,D4,True,2,0,19,2,4,132,19,13,30,5.74,0.83,0.5,0.5,1.0,0.0,1542,238
1105,Blossom Hill & Winfield,BLOSSOM HILL + WINFIELD,37.250258,-121.865507,,False,31,30,241,25,5,130,19,13,31,5.65,10.48,6.25,7.75,1.25,7.5,1831,3465
2767,Winchester & Camden,WINCHESTER + CAMDEN,37.277942,-121.949872,,False,0,1,8,17,25,129,19,13,30,5.61,0.35,4.25,0.0,6.25,0.25,1977,102
1744,Samaritan & National,SAMARITAN + NATIONAL,37.25289,-121.951583,D6,True,12,6,67,7,8,126,19,13,30,5.48,2.91,1.75,3.0,2.0,1.5,1592,976
1062,Main & Santa Cruz,MAIN + SANTA CRUZ,37.222298,-121.983565,D1,True,0,0,324,0,0,122,0,0,30,5.3,14.09,0.0,0.0,0.0,0.0,1352,3593
1750,Union & Samaritan,UNION + SAMARITAN,37.250184,-121.931439,,False,3,3,33,4,1,119,19,13,31,5.17,1.43,1.0,0.75,0.25,0.75,1383,443
1830,Knowles & Dardanelli,KNOWLES + DARDANELLI,37.261714,-121.966321,D3,True,0,0,41,7,4,119,19,13,32,5.17,1.78,1.75,0.0,1.0,0.0,1461,454
1068,Santa Cruz & Roberts,SANTA CRUZ + ROBERTS,37.233892,-121.978474,D1,True,8,6,62,4,11,119,19,13,32,5.17,2.7,1.0,2.0,2.75,1.5,1513,870
1103,Blossom Hill & Almaden,BLOSSOM HILL + ALMADEN,37.250614,-121.873522,,False,8,18,137,9,8,117,19,13,31,5.09,5.96,2.25,2.0,2.0,4.5,1519,1858
1162,Blossom Hill & Camden,BLOSSOM HILL + CAMDEN,37.236461,-121.903106,,False,29,43,237,13,5,114,19,13,32,4.96,10.3,3.25,7.25,1.25,10.75,1499,3562
1155,Blossom Hill & Kooser,BLOSSOM HILL + KOOSER,37.245513,-121.887915,,False,42,25,270,16,13,113,19,13,32,4.91,11.74,4.0,10.5,3.25,6.25,1629,3865
1115,Blossom Hill & Lean,BLOSSOM HILL + LEAN,37.251321,-121.817071,,False,26,37,371,8,7,113,19,13,31,4.91,16.13,2.0,6.5,1.75,9.25,1447,4932
1814,Union & Heather,UNION + HEATHER,37.244221,-121.931141,,False,12,19,178,8,17,112,19,14,32,4.87,7.74,2.0,3.0,4.25,4.75,1567,2377
1091,Blossom Hill & Harwood,BLOSSOM HILL + HARWOOD,37.23616,-121.913835,,False,11,4,43,10,13,109,19,13,31,4.74,1.87,2.5,2.75,3.25,1.0,1508,672
1188,Santa Cruz & Los Gatos-Saratoga,SANTA CRUZ + LOS GATOS-SARATOGA,37.230014,-121.980542,D1,True,38,14,153,14,8,109,19,13,30,4.74,6.65,3.5,9.5,2.0,3.5,1495,2372
2797,Los Gatos & Village Square,LOS GATOS + VILLAGE SQUARE,37.244547,-121.958614,D6,True,12,2,70,17,15,105,19,13,30,4.57,3.04,4.25,3.0,3.75,0.5,1581,957
1130,Cottle Park & Ride,COTTLE STATION PARK + RIDE,37.242189,-121.803716,,False,1,2,4,7,4,102,19,13,32,4.43,0.17,1.75,0.25,1.0,0.5,1273,82
1746,Samaritan & Samaritan,SAMARITAN + SAMARITAN PL,37.25102,-121.944554,D6,True,8,5,43,9,17,97,19,13,31,4.22,1.87,2.25,2.0,4.25,1.25,1414,646
1086,Leigh & Los Gatos-Almaden,LEIGH + LOS GATOS-ALMADEN,37.243106,-121.922772,,False,4,2,121,8,9,97,19,13,31,4.22,5.26,2.0,1.0,2.25,0.5,1297,1419
2789,Main & Villa,MAIN + VILLA,37.221226,-121.977956,D7,True,0,0,76,0,0,96,0,0,32,4.17,3.3,0.0,0.0,0.0,0.0,1063,842
1137,Blossom Hill & Calpine,BLOSSOM HILL + CALPINE,37.251641,-121.81229,,False,0,0,11,11,16,95,19,13,32,4.13,0.48,2.75,0.0,4.0,0.0,1404,122
1118,Cottle & Poughkeepsie,COTTLE + POUGHKEEPSIE,37.250912,-121.804193,,False,65,58,617,5,2,95,19,13,31,4.13,26.83,1.25,16.25,0.5,14.5,1144,8441
1139,Blossom Hill & Lathrop,BLOSSOM HILL + LATHROP,37.25157,-121.821149,,False,7,1,57,6,7,92,19,13,32,4.0,2.48,1.5,1.75,1.75,0.25,1189,736
1136,Blossom Hill & Beswick,BLOSSOM HILL + BESWICK,37.25159,-121.808568,,False,0,1,14,8,7,90,19,13,32,3.91,0.61,2.0,0.0,1.75,0.25,1192,169
1826,Winchester & Lark,WINCHESTER + LARK,37.254018,-121.966854,D3,True,4,2,94,8,11,88,19,13,32,3.83,4.09,2.0,1.0,2.75,0.5,1224,1121
2893,Los Gatos & Garden,LOS GATOS + GARDEN / GATEWAY,37.24594,-121.95815,D6,True,5,8,74,4,4,88,19,13,32,3.83,3.22,1.0,1.25,1.0,2.0,1081,990
1145,Blossom Hill & Cahalan,BLOSSOM HILL + CAHALAN,37.250705,-121.847912,,False,4,0,54,6,3,85,19,13,32,3.7,2.35,1.5,1.0,0.75,0.0,1060,651
1154,Blossom Hill & Ayrshire,BLOSSOM HILL + AYRSHIRE,37.248246,-121.883055,,False,7,6,205,9,8,83,19,13,32,3.61,8.91,2.25,1.75,2.0,1.5,1142,2441
1109,Blossom Hill & Cahalan,BLOSSOM HILL + CAHALAN,37.250434,-121.846206,,False,17,18,140,6,16,83,19,13,31,3.61,6.09,1.5,4.25,4.0,4.5,1207,2008
1179,Los Gatos & Los Gatos-Almaden,LOS GATOS + CHIRCO,37.24053,-121.960918,D6,True,9,8,64,7,4,79,19,13,32,3.43,2.78,1.75,2.25,1.0,2.0,1018,930
2779,Winchester & Newell,WINCHESTER + NEWELL,37.253832,-121.967294,D3,True,8,7,80,6,4,79,19,13,30,3.43,3.48,1.5,2.0,1.0,1.75,1005,1082
1104,Blossom Hill & Sanchez,BLOSSOM HILL + SANCHEZ,37.250405,-121.870999,,False,7,6,51,7,12,78,19,13,31,3.39,2.22,1.75,1.75,3.0,1.5,1111,735
1113,Blossom Hill & Judith,BLOSSOM HILL + JUDITH,37.251263,-121.824846,,False,13,8,109,1,5,76,19,13,31,3.3,4.74,0.25,3.25,1.25,2.0,920,1482
1063,University & Mullen,UNIVERSITY + MULLEN,37.223566,-121.981812,D1,True,0,0,47,0,0,73,0,0,32,3.17,2.04,0.0,0.0,0.0,0.0,808,520
2794,Los Gatos & Magneson,LOS GATOS + MAGNESON,37.233655,-121.963815,D7,True,3,18,95,6,3,68,19,13,30,2.96,4.13,1.5,0.75,0.75,4.5,872,1326
2704,Winchester & Hacienda,WINCHESTER + HACIENDA,37.26958,-121.955738,,False,4,3,20,4,3,67,19,13,32,2.91,0.87,1.0,1.0,0.75,0.75,833,313
1820,Samaritan & Saidel,SAMARITAN + SAIDEL,37.250653,-121.942971,D6,True,4,10,124,5,7,64,19,14,32,2.78,5.39,1.25,1.0,1.75,2.5,865,1556
1185,Santa Cruz & Mariposa,SANTA CRUZ + MARIPOSA,37.235547,-121.977838,D7,True,7,2,73,7,6,64,19,13,30,2.78,3.17,1.75,1.75,1.5,0.5,878,925
2894,Los Gatos & Garden (New Town Center),LOS GATOS + GARDEN (NEW TOWN CTR),37.243107,-121.959676,D6,True,7,8,81,6,3,63,19,13,32,2.74,3.52,1.5,1.75,0.75,2.0,816,1093
1111,Blossom Hill & Entrada Cedros,BLOSSOM HILL + ENTRADA CEDROS,37.251122,-121.83261,,False,30,22,545,9,7,62,19,13,31,2.7,23.7,2.25,7.5,1.75,5.5,896,6720
1186,Santa Cruz & Olive,SANTA CRUZ + OLIVE,37.233718,-121.978725,D1,True,9,3,129,4,4,62,19,13,30,2.7,5.61,1.0,2.25,1.0,0.75,792,1587
1144,Blossom Hill & Chesbro,BLOSSOM HILL + CHESBRO,37.250742,-121.843396,,False,11,5,46,3,6,61,19,13,32,2.65,2.0,0.75,2.75,1.5,1.25,793,718
1828,Knowles & Capri,KNOWLES + CAPRI,37.261739,-121.963036,D3,True,9,0,36,6,5,60,19,13,32,2.61,1.57,1.5,2.25,1.25,0.0,809,517
2793,Los Gatos & Nino,LOS GATOS + NINO,37.230534,-121.965335,D7,True,8,4,44,3,10,58,19,13,30,2.52,1.91,0.75,2.0,2.5,1.0,812,643
2777,Knowles & Dardanelli,KNOWLES + DARDANELLI,37.261534,-121.967141,D3,True,5,15,129,4,0,58,19,13,30,2.52,5.61,1.0,1.25,0.0,3.75,695,1691
2775,Pollard & Bracebridge,POLLARD + BRACEBRIDGE,37.264401,-121.97257,,False,4,6,82,4,5,56,19,13,30,2.43,3.57,1.0,1.0,1.25,1.5,737,1040
1823,Los Gatos & Burton,LOS GATOS + BURTON,37.252764,-121.952904,D6,True,7,6,68,7,6,54,19,13,32,2.35,2.96,1.75,1.75,1.5,1.5,768,924
2798,Los Gatos & Gateway,LOS GATOS + GATEWAY,37.246478,-121.957337,D6,True,5,8,95,8,2,52,19,13,30,2.26,4.13,2.0,1.25,0.5,2.0,706,1222
1165,Blossom Hill & Mary Jo,BLOSSOM HILL + MARY JO,37.236318,-121.91716,,False,2,4,20,2,4,52,19,13,32,2.26,0.87,0.5,0.5,1.0,1.0,654,300
1124,Santa Teresa & Cottle,SANTA TERESA + COTTLE,37.236847,-121.802919,,False,39,17,313,9,8,51,19,13,31,2.22,13.61,2.25,9.75,2.0,4.25,787,4199
2778,Knowles & Capri,KNOWLES + CAPRI,37.261596,-121.963517,D3,True,7,6,73,8,0,51,19,13,30,2.22,3.17,2.0,1.75,0.0,1.5,670,977
1087,Leigh & Gregg,LEIGH + GREGG,37.239651,-121.922812,,False,0,0,22,5,4,50,19,13,31,2.17,0.96,1.25,0.0,1.0,0.0,670,245
1831,Pollard & El Camino Hospital Los Gatos,POLLARD + EL CAMINO HOSPITAL - LOS GATOS,37.26218,-121.970152,,False,1,2,25,1,1,50,19,13,32,2.17,1.09,0.25,0.25,0.25,0.5,579,317
1163,Blossom Hill & Drysdale,BLOSSOM HILL + DRYSDALE,37.236412,-121.908205,,False,4,4,48,2,3,49,19,13,32,2.13,2.09,0.5,1.0,0.75,1.0,608,637
2782,Winchester & Valley Oak,WINCHESTER + VALLEY OAK,37.246772,-121.972852,D4,True,4,5,23,0,1,48,19,13,30,2.09,1.0,0.0,1.0,0.25,1.25,546,372
1167,Leigh & Blossom Hill,LEIGH + BLOSSOM HILL,37.236438,-121.922506,,False,1,3,29,5,3,47,19,13,32,2.04,1.26,1.25,0.25,0.75,0.75,624,373
1836,Hacienda & Walnut,HACIENDA + WALNUT,37.269072,-121.958513,,False,1,2,23,10,13,47,19,13,32,2.04,1.0,2.5,0.25,3.25,0.5,819,294
1114,Blossom Hill & Eagles,BLOSSOM HILL + EAGLES,37.251286,-121.822051,,False,4,8,100,12,0,46,19,13,31,2.0,4.35,3.0,1.0,0.0,2.0,666,1265
2897,Los Gatos & Caldwell,LOS GATOS + CALDWELL,37.22716,-121.968105,D7,True,7,4,39,4,3,45,19,13,32,1.96,1.7,1.0,1.75,0.75,1.0,591,576
2699,Winchester & Daves,WINCHESTER + DAVES,37.240436,-121.976643,D5,True,0,1,22,0,3,44,19,13,32,1.91,0.96,0.0,0.0,0.75,0.25,526,258
1747,Samaritan & Winton,SAMARITAN + WINTON,37.250563,-121.941846,D6,True,0,1,12,3,7,44,19,13,31,1.91,0.52,0.75,0.0,1.75,0.25,617,146
1064,University & Royce,UNIVERSITY + ROYCE,37.225412,-121.980787,D1,True,0,0,12,0,0,43,0,0,32,1.87,0.52,0.0,0.0,0.0,0.0,477,133
1827,Winchester & Albright,WINCHESTER + ALBRIGHT,37.256509,-121.965346,D3,True,0,1,24,2,0,41,19,13,32,1.78,1.04,0.5,0.0,0.0,0.25,480,278
1092,Blossom Hill & Drysdale,BLOSSOM HILL + DRYSDALE,37.236257,-121.907398,,False,1,1,55,12,8,37,19,13,31,1.61,2.39,3.0,0.25,2.0,0.25,671,635
1096,Blossom Hill & Vassar,BLOSSOM HILL + VASSAR,37.240475,-121.892713,,False,2,8,35,10,7,36,19,13,31,1.57,1.52,2.5,0.5,1.75,2.0,621,518
1151,Blossom Hill & Sanchez,BLOSSOM HILL + SANCHEZ,37.250699,-121.871001,,False,8,8,92,1,0,36,19,13,32,1.57,4.0,0.25,2.0,0.0,2.0,413,1228
1164,Blossom Hill & Harwood,BLOSSOM HILL + HARWOOD,37.236338,-121.91328,,False,8,7,135,4,6,35,19,13,32,1.52,5.87,1.0,2.0,1.5,1.75,518,1692
1743,Los Gatos & Del Sol,LOS GATOS + WALKER,37.25033,-121.954578,D6,True,3,0,43,5,5,35,19,13,30,1.52,1.87,1.25,0.75,1.25,0.0,518,516
1119,Cottle & Coronado,COTTLE + CORONADO,37.247311,-121.80413,,False,15,12,85,6,6,35,19,13,31,1.52,3.7,1.5,3.75,1.5,3.0,544,1294
1123,Cottle & Beswick,COTTLE + BESWICK,37.245633,-121.804132,,False,8,13,131,5,2,32,19,13,31,1.39,5.7,1.25,2.0,0.5,3.25,445,1726
1152,Blossom Hill & Almaden (Sutter Health),BLOSSOM HILL + ALMADEN (SUTTER HEALTH),37.250974,-121.874343,,False,21,16,188,5,1,31,19,13,32,1.35,8.17,1.25,5.25,0.25,4.0,422,2564
3305,Santa Teresa & Miyuki,SANTA TERESA + MIYUKI,37.236923,-121.79444,,False,0,0,1,7,5,31,19,13,32,1.35,0.04,1.75,0.0,1.25,0.0,500,10
2795,Los Gatos & Los Gatos-Almaden (Chirco),LOS GATOS + LG-ALMADEN / CHIRCO,37.241314,-121.960178,D6,True,11,3,58,3,3,31,19,13,30,1.35,2.52,0.75,2.75,0.75,0.75,422,825
1061,Santa Cruz & Nicholson,SANTA CRUZ + NICHOLSON,37.226048,-121.982318,D1,True,0,0,157,0,0,30,0,0,30,1.3,6.83,0.0,0.0,0.0,0.0,332,1742
1832,Pollard & Bracebridge,POLLARD + BRACEBRIDGE,37.265147,-121.973107,,False,2,3,34,4,1,30,19,13,32,1.3,1.48,1.0,0.5,0.25,0.75,396,442
1159,Blossom Hill & Vassar,BLOSSOM HILL + VASSAR,37.240607,-121.892925,,False,7,9,95,3,8,30,19,13,32,1.3,4.13,0.75,1.75,2.0,2.25,474,1261
2700,Winchester & Vineland,WINCHESTER + VINELAND,37.243749,-121.975162,D4,True,0,1,61,2,0,29,19,13,32,1.26,2.65,0.5,0.0,0.0,0.25,347,689
1816,Samaritan & Union,SAMARITAN + UNION,37.25073,-121.932244,,False,6,0,115,0,7,27,19,14,32,1.17,5.0,0.0,1.5,1.75,0.0,389,1353
1094,Blossom Hill & Park Crest,BLOSSOM HILL + PARK CREST,37.237805,-121.898625,,False,0,0,8,0,4,27,19,13,31,1.17,0.35,0.0,0.0,1.0,0.0,350,89
2698,Santa Cruz & Blossom Hill,SANTA CRUZ + BLOSSOM HILL,37.23625,-121.97733,D7,True,11,2,39,9,0,27,19,13,32,1.17,1.7,2.25,2.75,0.0,0.5,415,602
1835,Hacienda & Capri,HACIENDA + CAPRI,37.269084,-121.961761,,False,1,0,3,4,6,26,19,13,32,1.13,0.13,1.0,0.25,1.5,0.0,418,46
1751,Union & Carlton,UNION + CARLTON,37.248009,-121.931383,,False,1,4,20,3,0,26,19,13,31,1.13,0.87,0.75,0.25,0.0,1.0,327,287
2701,Winchester & Milani,WINCHESTER + MILANI,37.2465,-121.972805,D4,True,0,0,41,2,3,26,19,13,32,1.13,1.78,0.5,0.0,0.75,0.0,353,454
2896,Los Gatos & Nino,LOS GATOS + NINO,37.230625,-121.965574,D7,True,7,7,44,4,1,25,19,13,32,1.09,1.91,1.0,1.75,0.25,1.75,343,669
1117,Blossom Hill & Beswick,BLOSSOM HILL + BESWICK,37.25136,-121.808372,,False,7,4,77,0,0,25,19,13,31,1.09,3.35,0.0,1.75,0.0,1.0,278,997
2895,Los Gatos & Roberts,LOS GATOS + ROBERTS,37.232738,-121.96459,D7,True,3,1,52,4,7,24,19,13,32,1.04,2.26,1.0,0.75,1.75,0.25,408,628
1834,Hacienda & Gay,HACIENDA + GAY,37.269062,-121.966717,,False,1,3,46,3,4,24,19,13,32,1.04,2.0,0.75,0.25,1.0,0.75,356,562
1748,Samaritan & Cooper,SAMARITAN + COOPER,37.25058,-121.93815,D6,True,2,2,10,3,1,23,19,13,31,1.0,0.43,0.75,0.5,0.25,0.5,307,162
2792,Los Gatos & Fillmer,LOS GATOS + FILLMER,37.227071,-121.968004,D7,True,3,8,25,6,7,23,19,13,30,1.0,1.09,1.5,0.75,1.75,2.0,424,421
1817,Samaritan & Esther,SAMARITAN + ESTHER,37.250707,-121.935647,,False,4,5,47,3,0,22,19,14,32,0.96,2.04,0.75,1.0,0.0,1.25,284,637
2784,Winchester & Daves,WINCHESTER + DAVES,37.23975,-121.977014,D5,True,5,1,57,0,2,22,19,13,30,0.96,2.48,0.0,1.25,0.5,0.25,271,710
2771,Hacienda & Walnut,HACIENDA + WALNUT,37.269247,-121.959049,,False,3,6,31,5,0,21,19,13,30,0.91,1.35,1.25,0.75,0.0,1.5,297,461
2769,Winchester & Sunnyoaks,WINCHESTER + SUNNYOAKS,37.271789,-121.954372,,False,8,5,48,2,6,20,19,13,30,0.87,2.09,0.5,2.0,1.5,1.25,326,702
2776,Pollard & Teakwood,POLLARD + TEAKWOOD,37.262511,-121.970719,,False,2,1,14,0,0,19,19,13,30,0.83,0.61,0.0,0.5,0.0,0.25,212,195
1160,Blossom Hill & Dartmouth,BLOSSOM HILL + DARTMOUTH,37.239132,-121.89614,,False,3,1,47,0,0,18,19,13,32,0.78,2.04,0.0,0.75,0.0,0.25,199,572
1740,Winchester & Albright,WINCHESTER + ALBRIGHT,37.255433,-121.966333,D3,True,2,0,22,4,4,18,19,13,30,0.78,0.96,1.0,0.5,1.0,0.0,303,271
1168,Leigh & Anne,LEIGH + ANNE,37.239802,-121.922615,,False,5,2,123,2,0,18,19,13,32,0.78,5.35,0.5,1.25,0.0,0.5,225,1455
1824,Los Gatos & Bennett,LOS GATOS + BENNETT,37.249677,-121.955327,D6,True,7,3,38,1,2,17,19,13,32,0.74,1.65,0.25,1.75,0.5,0.75,228,551
1170,Los Gatos-Almaden & Sandy,LOS GATOS-ALMADEN + SANDY,37.243542,-121.926544,,False,4,2,27,5,2,17,19,14,32,0.74,1.17,1.25,1.0,0.5,0.5,280,376
1088,Leigh & Kay,LEIGH + KAY,37.236714,-121.922715,,False,2,3,38,3,0,16,19,13,31,0.7,1.65,0.75,0.5,0.0,0.75,218,486
1166,Blossom Hill & Del Oro,BLOSSOM HILL + DEL ORO,37.236285,-121.921069,,False,1,4,14,2,0,15,19,13,32,0.65,0.61,0.5,0.25,0.0,1.0,192,221
1095,Blossom Hill & Chambertin,BLOSSOM HILL + CHAMBERTIN,37.239294,-121.895254,,False,0,1,12,2,2,15,19,13,31,0.65,0.52,0.5,0.0,0.5,0.25,218,146
1065,Los Gatos-Saratoga & University,SARATOGA-LOS GATOS + UNIVERSITY,37.228756,-121.980271,D1,True,25,18,27,12,16,13,19,13,32,0.57,1.17,3.0,6.25,4.0,4.5,509,857
1085,Los Gatos-Almaden & Kentfield,LOS GATOS-ALMADEN + KENTFIELD,37.243384,-121.925995,,False,1,4,9,5,3,13,19,13,31,0.57,0.39,1.25,0.25,0.75,1.0,249,164
2787,Los Gatos & Simons,LOS GATOS + SIMONS,37.222994,-121.971516,D7,True,0,0,9,0,0,12,0,0,32,0.52,0.39,0.0,0.0,0.0,0.0,133,99
2770,Hacienda & Winchester,HACIENDA + WINCHESTER,37.269243,-121.956971,,False,3,0,97,4,1,12,19,13,30,0.52,4.22,1.0,0.75,0.25,0.0,198,1115
2773,Hacienda & Via Ranchero,HACIENDA + VIA RANCHERO,37.269227,-121.966378,,False,1,2,39,1,1,12,19,13,30,0.52,1.7,0.25,0.25,0.25,0.5,159,472
2780,Winchester & La Rinconada,WINCHESTER + LA RINCONADA,37.25104,-121.969176,D4,True,0,0,6,0,1,10,19,13,30,0.43,0.26,0.0,0.0,0.25,0.0,123,66
1116,Blossom Hill & Calpine,BLOSSOM HILL + CALPINE,37.251351,-121.812286,,False,6,3,83,0,0,10,19,13,31,0.43,3.61,0.0,1.5,0.0,0.75,110,1038
2768,Winchester & Friar,WINCHESTER + FRIAR,37.275752,-121.951334,,False,0,1,2,1,7,10,19,13,30,0.43,0.09,0.25,0.0,1.75,0.25,214,36
2703,Winchester & La Rinconada,WINCHESTER + LA RINCONADA,37.250631,-121.969297,D4,True,0,1,18,0,0,10,19,13,32,0.43,0.78,0.0,0.0,0.0,0.25,110,212
1749,Samaritan & Esther,SAMARITAN + ESTHER,37.25059,-121.935196,,False,1,6,19,2,2,10,19,13,31,0.43,0.83,0.5,0.25,0.5,1.5,162,303
1161,Blossom Hill & Parkcrest,BLOSSOM HILL + PARK CREST,37.237942,-121.898746,,False,3,0,39,0,0,9,19,13,32,0.39,1.7,0.0,0.75,0.0,0.0,99,472
1089,Blossom Hill & Del Oro,BLOSSOM HILL + DEL ORO,37.23611,-121.920733,,False,1,3,11,0,1,8,19,13,31,0.35,0.48,0.0,0.25,0.25,0.75,102,174
2697,Los Gatos & Stacia,LOS GATOS + STACIA,37.223,-121.971331,D7,True,0,0,29,0,0,8,0,0,30,0.35,1.26,0.0,0.0,0.0,0.0,89,321
2705,Winchester & Camden,WINCHESTER + CAMDEN,37.27843,-121.949632,,False,28,12,271,0,0,6,19,13,32,0.26,11.78,0.0,7.0,0.0,3.0,66,3524
3343,Santa Teresa & Encinal,SANTA TERESA + ENCINAL,37.236795,-121.795928,,False,25,3,64,0,0,5,19,13,31,0.22,2.78,0.0,6.25,0.0,0.75,56,1073
1090,Blossom Hill & Belwood,BLOSSOM HILL + BELWOOD,37.236141,-121.916592,,False,2,2,24,2,5,5,19,13,31,0.22,1.04,0.5,0.5,1.25,0.5,147,317
1818,Samaritan & Cooper,SAMARITAN + COOPER,37.250699,-121.938904,D6,True,1,0,52,1,0,3,19,14,32,0.13,2.26,0.25,0.25,0.0,0.0,46,589
1822,Samaritan & Medical Center,SAMARITAN + MEDICAL CENTER,37.252288,-121.950083,D6,True,1,0,8,0,0,3,19,13,32,0.13,0.35,0.0,0.25,0.0,0.0,33,102
2781,Winchester & Eaton,WINCHESTER + EATON,37.249616,-121.970506,D4,True,0,0,2,0,0,2,19,13,30,0.09,0.09,0.0,0.0,0.0,0.0,23,23
2772,Hacienda & Capri,HACIENDA + CAPRI,37.269254,-121.961126,,False,0,3,30,0,0,2,19,13,30,0.09,1.3,0.0,0.0,0.0,0.75,23,370
1819,Samaritan & Clydelle,SAMARITAN + CLYDELLE,37.250672,-121.940729,D6,True,1,5,26,2,2,2,19,14,32,0.09,1.13,0.5,0.25,0.5,1.25,75,366
2702,Winchester & Wild,WINCHESTER + WILD,37.249537,-121.970271,D4,True,0,0,6,0,1,1,19,13,32,0.04,0.26,0.0,0.0,0.25,0.0,23,66
5656,Cottle & Palmia,COTTLE + PALMIA,37.240573,-121.804082,,False,25,7,81,14,1,1,19,13,25,0.04,3.52,3.5,6.25,0.25,1.75,205,1314
2786,Los Gatos-Saratoga & Village Lane,SARATOGA-LOS GATOS + VILLAGE,37.228452,-121.980226,D1,True,56,68,0,23,12,0,19,13,0,0.0,0.0,5.75,14.0,3.0,17.0,455,1612
